[{"id":"p15","title":"African Savanna","image":{"src":"african-savanna.jpg","alt":"Wild animals roaming freely in the vast landscapes of the African savanna."},"lat":-2.153,"lon":34.6857},{"id":"p17","title":"Machu Picchu","image":{"src":"machu-picchu.jpg","alt":"The historic Incan citadel of Machu Picchu illuminated by the morning sun."},"lat":-13.1631,"lon":-72.545},{"id":"p9","title":"Great Barrier Reef","image":{"src":"great-barrier-reef.jpg","alt":"Vibrant coral formations of the Great Barrier Reef underwater."},"lat":-18.2871,"lon":147.6992},{"id":"p5","title":"Ancient Grecian Ruins","image":{"src":"ruins.jpg","alt":"Historic ruins standing tall against the backdrop of the Grecian sky."},"lat":37.9715,"lon":23.7257},{"id":"p1","title":"Forest Waterfall","image":{"src":"forest-waterfall.jpg","alt":"A tranquil forest with a cascading waterfall amidst greenery."},"lat":44.5588,"lon":-80.344},{"id":"p2","title":"Sahara Desert Dunes","image":{"src":"desert-dunes.jpg","alt":"Golden dunes stretching to the horizon in the Sahara Desert."},"lat":25,"lon":0}]